{"type":"FeatureCollection","features":[{"type":"Feature","properties":{"name":"Cumberland (1830)"},"geometry":{"type":"Point","coordinates":[115.04033334451629,-34.29668332313239]}},{"type":"Feature","properties":{"name":"Belinda (1824)"},"geometry":{"type":"Point","coordinates":[123.21031000825208,-34.09008999184179]}},{"type":"Feature","properties":{"name":"Trial (1622)"},"geometry":{"type":"Point","coordinates":[115.37523333762916,-20.28598332769193]}},{"type":"Feature","properties":{"name":"Vergulde Draeck (1656)"},"geometry":{"type":"Point","coordinates":[115.35905000991932,-31.221391658139173]}},{"type":"Feature","properties":{"name":"Zeewijk (1727)"},"geometry":{"type":"Point","coordinates":[113.81340000942184,-28.883799991217264]}},{"type":"Feature","properties":{"name":"Zuytdorp (1712)"},"geometry":{"type":"Point","coordinates":[113.9364534253366,-27.186114159000856]}},{"type":"Feature","properties":{"name":"Batavia (1629)"},"geometry":{"type":"Point","coordinates":[113.79192800947858,-28.491643991366954]}},{"type":"Feature","properties":{"name":"Benan (1888)"},"geometry":{"type":"Point","coordinates":[113.67450000646808,-22.741516660270137]}},{"type":"Feature","properties":{"name":"Long Jetty (1921)"},"geometry":{"type":"Point","coordinates":[115.74092901059625,-32.058906990646828]}}]}
